[{"rating": "4.5", "yelpLink": "", "name": "La Tosca", "cuisine": ["Italian", "Mediterranean", "European"], "price": "$$$$", "coordinates": [46.20265939999999, 6.1582715], "phone": "+41 22 707 14 44", "tripAdvisorLink": "https://www.tripadvisor.com/Restaurant_Review-g188057-d10744090-Reviews-TOSCA-Geneva.html", "address": "8 Rue de la Mairie"}, {"rating": "4.5", "yelpLink": "https://en.yelp.ch/biz/caf%C3%A9-des-banques-gen%C3%A8ve", "name": "Caf\u00e9 des Banques", "cuisine": ["European", "French", "Mediterranean"], "price": "$$$$", "coordinates": [46.2019921, 6.1406014], "phone": "+41 22 311 44 98", "tripAdvisorLink": "https://www.tripadvisor.com/Restaurant_Review-g188057-d1044861-Reviews-Cafe_des_Banques-Geneva.html", "address": "rue de Hesse 6"}, {"rating": "4", "yelpLink": "", "name": "Caf\u00e9 Calla (Mandarin Oriental) ", "cuisine": ["Swiss", "European", "Gluten Free Options"], "price": "$$$$", "coordinates": [46.2055691, 6.1411642], "phone": "+41 22 909 00 00", "tripAdvisorLink": "https://www.tripadvisor.com/Restaurant_Review-g188057-d6685775-Reviews-Cafe_Calla_at_Mandarin_Oriental-Geneva.html", "address": "quai Turrettini 1"}, {"rating": "4", "yelpLink": "", "name": "Planet Caviar", "cuisine": ["Seafood", "Mediterranean"], "price": "$$$$", "coordinates": [46.2019132, 6.1555294], "phone": "+41 22 840 40 85", "tripAdvisorLink": "https://www.tripadvisor.com/Restaurant_Review-g188057-d4551336-Reviews-Planet_Caviar-Geneva.html", "address": "rue Louis-Duchosal 7"}, {"rating": "4", "yelpLink": "https://en.yelp.ch/biz/baroush-gen%C3%A8ve", "name": "Baroush", "cuisine": ["Lebanese", "Moroccan", "Mediterranean"], "price": "$$ - $$$", "coordinates": [46.2007875, 6.1554992], "phone": "+41 22 849 59 59", "tripAdvisorLink": "https://www.tripadvisor.com/Restaurant_Review-g188057-d7133342-Reviews-Baroush-Geneva.html", "address": "carrefour de Rive 1"}, {"rating": "4.5", "yelpLink": "", "name": "Le Jardin (H\u00f4tel Richemond)", "cuisine": ["French", "European", "Vegetarian Friendly"], "price": "$$$$", "coordinates": [46.208981, 6.148873999999999], "phone": "+41 22 715 71 00", "tripAdvisorLink": "https://www.tripadvisor.com/Restaurant_Review-g188057-d785015-Reviews-Le_Jardin-Geneva.html", "address": "Rue Adhemar-Fabri 8-10"}, {"rating": "3.5", "yelpLink": "", "name": "Le Bistro (H\u00f4tel Royal)", "cuisine": ["French", "European", "Swiss"], "price": "$$ - $$$", "coordinates": [46.2135091, 6.1454039], "phone": "+41 22 906 14 60", "tripAdvisorLink": "https://www.tripadvisor.com/Restaurant_Review-g188057-d7108670-Reviews-Hotel_Royal_Le_Duo_Cote_Bistro-Geneva.html", "address": "rue de Lausanne 41"}, {"rating": "4.5", "yelpLink": "", "name": "Yo'mo Lounge", "cuisine": ["Lebanese", "Mediterranean", "Middle Eastern"], "price": "$$ - $$$", "coordinates": [46.2038833, 6.1547184], "phone": "+41 22 735 30 76", "tripAdvisorLink": "https://www.tripadvisor.com/Restaurant_Review-g188057-d2543500-Reviews-Yo_Mo_Lounge-Geneva.html", "address": "rue Pierre-Fatio 1"}, {"rating": "4.5", "yelpLink": "", "name": "Auberge de Confignon", "cuisine": ["Fran\u00e7aise"], "price": "\u20ac\u20ac\u20ac\u20ac", "coordinates": [46.1744166, 6.084378999999999], "phone": "+41 22 757 19 44", "tripAdvisorLink": "https://fr.tripadvisor.ch/Restaurant_Review-g4278006-d4079702-Reviews-Bistro_de_Confignon-Confignon.html", "address": "place de l' Eglise 6"}, {"rating": "4", "yelpLink": "", "name": "Auberge de Compesi\u00e8res", "cuisine": ["Fran\u00e7aise"], "price": "\u20ac\u20ac - \u20ac\u20ac\u20ac", "coordinates": [46.153453, 6.117848], "phone": "+ Ajouter le num\u00e9ro de t\u00e9l\u00e9phone", "tripAdvisorLink": "https://www.tripadvisor.fr/Restaurant_Review-g188057-d3726855-Reviews-Auberge_de_Compesieres-Geneva.html", "address": "route de Cugny 75"}, {"rating": "3.5", "yelpLink": "", "name": "La Voile", "cuisine": ["French", "European", "Seafood"], "price": "$$ - $$$", "coordinates": [46.2054977, 6.1579978], "phone": "+41 22 736 05 82", "tripAdvisorLink": "https://www.tripadvisor.com/Restaurant_Review-g188057-d6757839-Reviews-La_Voile-Geneva.html", "address": "quai Gustave-Ador 24"}, {"rating": "4.5", "yelpLink": "", "name": "Montiro", "cuisine": ["Italian", "French", "European"], "price": "$$ - $$$", "coordinates": [46.2025357, 6.1391756], "phone": "+41 22 320 36 18", "tripAdvisorLink": "https://www.tripadvisor.com/Restaurant_Review-g188057-d8124806-Reviews-Montiro-Geneva.html", "address": "12, Rue de l'Arquebuse"}, {"rating": "5", "yelpLink": "", "name": "Vanity", "cuisine": ["Italienne", "Fran\u00e7aise", "Internationale"], "price": "\u20ac\u20ac - \u20ac\u20ac\u20ac", "coordinates": [40.078683, -75.022904], "phone": "+41 79 157 89 36", "tripAdvisorLink": "https://fr.tripadvisor.ch/Restaurant_Review-g188057-d13122497-Reviews-Vanity-Geneva.html", "address": "place du molard,9"}, {"rating": "3.5", "yelpLink": "", "name": "Le Carnivore", "cuisine": ["French", "European"], "price": "$$ - $$$", "coordinates": [46.200031, 6.148253299999999], "phone": "+41 22 311 87 58", "tripAdvisorLink": "https://www.tripadvisor.com/Restaurant_Review-g188057-d1886571-Reviews-Au_carnivore-Geneva.html", "address": "place du Bourg-de-Four 30"}, {"rating": "4", "yelpLink": "https://en.yelp.ch/biz/ukiyo-gen%C3%A8ve", "name": "Ukiyo", "cuisine": ["Japanese", "Asian", "Soups"], "price": "$$ - $$$", "coordinates": [46.20673499999999, 6.143676], "phone": "+41 22 525 70 71", "tripAdvisorLink": "https://www.tripadvisor.com/Restaurant_Review-g188057-d11858181-Reviews-Ukiyo-Geneva.html", "address": "6, Place De-Grenus"}, {"rating": "4", "yelpLink": "", "name": "Le Dorian", "cuisine": ["Italian", "French", "Mediterranean"], "price": "$$ - $$$", "coordinates": [46.2002098, 6.142895299999999], "phone": "328-25-36", "tripAdvisorLink": "https://www.tripadvisor.com/Restaurant_Review-g188057-d1044934-Reviews-Le_Dorian-Geneva.html", "address": "Place Rene-Payot 1"}, {"rating": "4", "yelpLink": "", "name": "Le Relais de Chamb\u00e9sy", "cuisine": ["French", "Swiss", "European"], "price": "$$$$", "coordinates": [46.2423215, 6.1431625], "phone": "+41 22 758 11 05", "tripAdvisorLink": "https://www.tripadvisor.com/Restaurant_Review-g2250912-d2664642-Reviews-Relais_de_Chambesy-Chambesy.html", "address": "place de Chambesy 8"}, {"rating": "4", "yelpLink": "", "name": "Caf\u00e9 - Restaurant du Quai", "cuisine": ["Fran\u00e7aise", "Suisse", "Europ\u00e9enne"], "price": "\u20ac\u20ac - \u20ac\u20ac\u20ac", "coordinates": [46.30241119999999, 6.241956999999999], "phone": "+41 22 751 40 00", "tripAdvisorLink": "https://fr.tripadvisor.ch/Restaurant_Review-g1006501-d8272793-Reviews-Cafe_Restaurant_du_Quai-Hermance.html", "address": "Le Quai 10"}, {"rating": "4.5", "yelpLink": "", "name": "Mu Food", "cuisine": ["European", "Healthy", "Vegetarian Friendly"], "price": "$$ - $$$", "coordinates": [46.2150623, 6.1464839], "phone": "+41 22 900 06 65", "tripAdvisorLink": "https://www.tripadvisor.com/Restaurant_Review-g188057-d7334259-Reviews-Mu_Food-Geneva.html", "address": "rue de Lausanne 59"}, {"rating": "4", "yelpLink": "", "name": "Caf\u00e9 Julienne", "cuisine": ["French"], "price": "$$ - $$$", "coordinates": [46.169752, 6.119822], "phone": "+41 22 794 56 22", "tripAdvisorLink": "https://www.tripadvisor.com/Restaurant_Review-g1096098-d4416111-Reviews-Cafe_Julienne-Plan_Les_Ouates_Geneva.html", "address": "Route de Saint-Julien 116"}, {"rating": "4", "yelpLink": "", "name": "Le Socrate", "cuisine": ["French", "European"], "price": "$$ - $$$", "coordinates": [46.1956009, 6.1463762], "phone": "+41 78 664 67 78", "tripAdvisorLink": "https://www.tripadvisor.com/Restaurant_Review-g188057-d812011-Reviews-Le_Socrate-Geneva.html", "address": "rue Micheli-du-Crest 6"}, {"rating": "3.5", "yelpLink": "https://en.yelp.ch/biz/vapiano-gen%C3%A8ve", "name": "Vapiano", "cuisine": ["Italian", "Pizza", "Mediterranean"], "price": "$$ - $$$", "coordinates": [46.2061174, 6.142444299999999], "phone": "+41 22 301 32 32", "tripAdvisorLink": "https://www.tripadvisor.com/Restaurant_Review-g188057-d6673314-Reviews-Vapiano-Geneva.html", "address": "Place Saint Gervais 3. 1021 Geneva"}, {"rating": "4", "yelpLink": "https://en.yelp.ch/biz/le-49-rh%C3%B4ne-gen%C3%A8ve", "name": "Le 49 Rh\u00f4ne", "cuisine": ["French", "Steakhouse", "European"], "price": "$$ - $$$", "coordinates": [46.203525, 6.150849], "phone": "+41 22 320 49 49", "tripAdvisorLink": "https://www.tripadvisor.com/Restaurant_Review-g188057-d7687905-Reviews-Le_49_Rhone-Geneva.html", "address": "rue du Rhone 49"}, {"rating": "3.5", "yelpLink": "", "name": "O'Five", "cuisine": ["European", "International", "Vegetarian Friendly"], "price": "$$ - $$$", "coordinates": [46.28084459999999, 6.166403799999999], "phone": "+41 22 907 81 11", "tripAdvisorLink": "https://www.tripadvisor.com/Restaurant_Review-g1203132-d7296425-Reviews-Restaurant_O_Five-Versoix_Geneva.html", "address": "Route de Suisse 79"}, {"rating": "4", "yelpLink": "", "name": "Garden Fifteen", "cuisine": ["Fran\u00e7aise"], "price": "\u20ac\u20ac\u20ac\u20ac", "coordinates": [42.8656547, -76.9999204], "phone": "+41 22 771 33 39", "tripAdvisorLink": "https://www.tripadvisor.fr/Restaurant_Review-g1096098-d11695466-Reviews-Gardenfifteen-Plan_Les_Ouates_Geneva.html", "address": "Chemin Marc Charrot 2"}, {"rating": "4.5", "yelpLink": "", "name": "La Storia", "cuisine": ["Italian", "Pizza", "Cafe"], "price": "$$ - $$$", "coordinates": [46.202951, 6.1671689], "phone": "+41 22 736 32 33", "tripAdvisorLink": "https://www.tripadvisor.com/Restaurant_Review-g188057-d10713054-Reviews-La_Storia-Geneva.html", "address": "Route de Frontenex 62 bis"}, {"rating": "4", "yelpLink": "https://en.yelp.ch/biz/caf%C3%A9-de-mategnin-meyrin", "name": "Caf\u00e9 de Mategnin", "cuisine": ["French", "Swiss", "European"], "price": "$$ - $$$", "coordinates": [46.2401277, 6.086580199999999], "phone": "+41 22 782 06 88", "tripAdvisorLink": "https://www.tripadvisor.com/Restaurant_Review-g1974645-d1974457-Reviews-Cafe_de_Mategnin-Meyrin_Geneva.html", "address": "avenue Auguste-Francois- Dubois 37"}, {"rating": "4", "yelpLink": "", "name": "Caf\u00e9 des Sources", "cuisine": ["French", "Cafe", "European"], "price": "$$ - $$$", "coordinates": [46.1958996, 6.144179599999999], "phone": "+41 22 320 67 98", "tripAdvisorLink": "https://www.tripadvisor.com/Restaurant_Review-g188057-d2536281-Reviews-Cafe_des_Sources_Eric_Vouriot-Geneva.html", "address": "rue des Sources 8"}, {"rating": "3.5", "yelpLink": "", "name": "Brasserie Nouvelle", "cuisine": ["French", "Swiss", "European"], "price": "$$ - $$$", "coordinates": [46.208731, 6.125641], "phone": "+ Add phone number", "tripAdvisorLink": "https://www.tripadvisor.com/Restaurant_Review-g188057-d3784629-Reviews-Brasserie_Nouvelle-Geneva.html", "address": "Rue de Lyon 98"}, {"rating": "4", "yelpLink": "", "name": "Le Comptoir Canaille", "cuisine": ["French", "European"], "price": "$$ - $$$", "coordinates": [46.1989031, 6.1346758], "phone": "+41 22 321 91 10", "tripAdvisorLink": "https://www.tripadvisor.com/Restaurant_Review-g188057-d6395839-Reviews-Le_Comptoir_Canaille-Geneva.html", "address": "boulevard Carl-Vogt 45"}, {"rating": "4.5", "yelpLink": "", "name": "Au Jardin", "cuisine": ["French", "European", "Mediterranean"], "price": "$$ - $$$", "coordinates": [46.2296941, 6.1584173], "phone": "+41 22 740 40 30", "tripAdvisorLink": "https://www.tripadvisor.com/Restaurant_Review-g188057-d7045809-Reviews-Au_Jardin_Bistrot-Geneva.html", "address": "rue du Grand-Pre 25"}, {"rating": "4.5", "yelpLink": "", "name": "Caf\u00e9 de la Paix", "cuisine": ["French", "European", "Vegetarian Friendly"], "price": "$$$$", "coordinates": [46.198063, 6.1360557], "phone": "+41 22 301 11 88", "tripAdvisorLink": "https://www.tripadvisor.com/Restaurant_Review-g188057-d7095968-Reviews-Cafe_de_la_Paix-Geneva.html", "address": "boulevard Carl-Vogt 61"}, {"rating": "4", "yelpLink": "https://www.yelp.com/biz/la-primavera-gen%C3%A8ve", "name": "La Primavera", "cuisine": ["Italian", "Pizza", "Mediterranean"], "price": "$$ - $$$", "coordinates": [46.214381, 6.128372], "phone": "+41 22 734 01 02", "tripAdvisorLink": "https://www.tripadvisor.com/Restaurant_Review-g188057-d3600794-Reviews-Pizzeria_La_Primavera-Geneva.html", "address": "route de Meyrin 8"}, {"rating": "4.5", "yelpLink": "", "name": "FMR Downtown", "cuisine": ["American", "Vegetarian Friendly"], "price": "$$ - $$$", "coordinates": [46.2027623, 6.1471519], "phone": "+41 22 810 80 78", "tripAdvisorLink": "https://www.tripadvisor.com/Restaurant_Review-g188057-d12188438-Reviews-FMR_downtown-Geneva.html", "address": "29 Rue de la rotisserie"}, {"rating": "4", "yelpLink": "", "name": "Restaurant de Philom\u00e8ne", "cuisine": ["Fran\u00e7aise", "Europ\u00e9enne"], "price": "\u20ac\u20ac - \u20ac\u20ac\u20ac", "coordinates": [46.19504269999999, 6.1919018], "phone": "+41 22 349 49 69", "tripAdvisorLink": "https://fr.tripadvisor.ch/Restaurant_Review-g2011469-d813490-Reviews-Le_Restaurant_de_Philomene-Chene_Bourg.html", "address": "Rue du Gothard 1"}, {"rating": "4", "yelpLink": "", "name": "Swiss Bistro", "cuisine": ["Swiss", "European"], "price": "$$ - $$$", "coordinates": [46.22111200000001, 6.112778], "phone": "+41 22 710 46 26", "tripAdvisorLink": "https://www.tripadvisor.com/Restaurant_Review-g188057-d6354366-Reviews-Swiss_Bistro-Geneva.html", "address": "Avenue Louis-Casai 28"}, {"rating": "4", "yelpLink": "https://fr.yelp.ch/biz/restaurant-la-huchette-carouge-ge", "name": "La Huchette", "cuisine": ["French", "Swiss", "European"], "price": "$$ - $$$", "coordinates": [46.1820358, 6.140035999999999], "phone": "+41 22 342 22 28", "tripAdvisorLink": "https://www.tripadvisor.com/Restaurant_Review-g664427-d1044967-Reviews-La_Huchette-Carouge.html", "address": "Rue Jacques Dalphin 35"}, {"rating": "3,5", "yelpLink": "https://www.yelp.com/biz/mangiare-italiano-gen%C3%A8ve", "name": "Mangiare Italiano", "cuisine": ["Italienne"], "price": "\u20ac\u20ac - \u20ac\u20ac\u20ac", "coordinates": [46.1923852, 6.138213299999999], "phone": "+41 22 300 62 15", "tripAdvisorLink": "https://www.tripadvisor.fr/Restaurant_Review-g188057-d10072878-Reviews-Mangiare_Italiano-Geneva.html", "address": "route des Acacias 4"}, {"rating": "4.5", "yelpLink": "", "name": "Le Petit Bordelais", "cuisine": ["Fran\u00e7aise", "Suisse", "Internationale"], "price": "Fran\u00e7aise, Suisse, Internationale", "coordinates": [46.2046437, 6.1238739], "phone": "+41 22 340 51 68", "tripAdvisorLink": "https://fr.tripadvisor.ch/Restaurant_Review-g188057-d10466339-Reviews-Le_Petit_Bordelais-Geneva.html", "address": "rue du Contrat-Social 6"}, {"rating": "4.5", "yelpLink": "", "name": "FMR", "cuisine": ["American", "Vegetarian Friendly"], "price": "$$ - $$$", "coordinates": [46.2033229, 6.1358465], "phone": "+41 22 810 80 78", "tripAdvisorLink": "https://www.tripadvisor.com/Restaurant_Review-g188057-d12188438-Reviews-FMR_downtown-Geneva.html", "address": "29 Rue de la rotisserie"}, {"rating": "4", "yelpLink": "", "name": "La Taverne du Valais", "cuisine": ["Swiss", "Barbecue", "European"], "price": "$$ - $$$", "coordinates": [46.2005881, 6.102856999999999], "phone": "+41 22 796 23 23", "tripAdvisorLink": "https://www.tripadvisor.com/Restaurant_Review-g188057-d2371312-Reviews-La_Taverne_du_Valais-Geneva.html", "address": "4 ch. des Sellieres"}, {"rating": "3.5", "yelpLink": "https://en.yelp.ch/biz/bap-urban-korean-food-gen%C3%A8ve", "name": "BAP", "cuisine": ["Asian", "Korean", "Vegetarian Friendly"], "price": "$$ - $$$", "coordinates": [46.20683390000001, 6.1420743], "phone": "+41 22 731 11 33", "tripAdvisorLink": "https://www.tripadvisor.com/Restaurant_Review-g188057-d4187360-Reviews-BAP_urban_korean_food-Geneva.html", "address": "rue de Coutance 25"}, {"rating": "4.5", "yelpLink": "", "name": "L'escapade", "cuisine": ["Italian", "French", "Mediterranean"], "price": "$$$$", "coordinates": [46.1949821, 6.1634924], "phone": "+41 22 347 83 19", "tripAdvisorLink": "https://www.tripadvisor.com/Restaurant_Review-g188057-d1234540-Reviews-L_Escapade-Geneva.html", "address": "avenue Krieg 7"}, {"yelpLink": "", "tripAdvisorLink": "", "name": "C\u00f4t\u00e9 Square (H\u00f4tel Bristol)", "coordinates": [46.20741, 6.14677]}, {"rating": "3.5", "yelpLink": "https://en.yelp.ch/biz/l-esquisse-gen%C3%A8ve", "name": "L'esquisse", "cuisine": ["French", "European"], "price": "$$ - $$$", "coordinates": [46.2044593, 6.1574507], "phone": "+41 22 786 50 44", "tripAdvisorLink": "https://www.tripadvisor.com/Restaurant_Review-g188057-d1044943-Reviews-Esquisse-Geneva.html", "address": "rue du Lac 7"}, {"rating": "3", "yelpLink": "https://en.yelp.ch/biz/l-incontro-gen%C3%A8ve-2", "name": "L'incontro", "cuisine": ["Italian", "Mediterranean", "European"], "price": "$$ - $$$", "coordinates": [46.2025332, 6.1403332], "phone": "+41 22 311 75 24", "tripAdvisorLink": "https://www.tripadvisor.com/Restaurant_Review-g188057-d779082-Reviews-L_incontro-Geneva.html", "address": "place de la Synagogue 2"}, {"rating": "3", "yelpLink": "", "name": "Ch\u00e2teau de Genthod", "cuisine": ["Fran\u00e7aise"], "price": "\u20ac\u20ac - \u20ac\u20ac\u20ac", "coordinates": [46.2645991, 6.1570041], "phone": "+41 22 774 19 20", "tripAdvisorLink": "https://fr.tripadvisor.ch/Restaurant_Review-g188057-d3737606-Reviews-Chateau_de_Genthod-Geneva.html", "address": "route de Rennex 1"}, {"rating": "4.5", "yelpLink": "", "name": "Le Jardin de Pinchat", "coordinates": [46.1808074, 6.1500691], "phone": "+41 22 342 14 23", "tripAdvisorLink": "https://www.tripadvisor.co.uk/Restaurant_Review-g664427-d12930324-Reviews-Le_jardin_de_pinchat-Carouge.html", "address": "42, chemin Charles-Poluzzi"}, {"rating": "3.5", "yelpLink": "", "name": "Caf\u00e9 du Raisin", "cuisine": ["European"], "price": "$$ - $$$", "coordinates": [46.2365082, 6.126759499999999], "phone": "+41 22 300 06 86", "tripAdvisorLink": "https://www.tripadvisor.com/Restaurant_Review-g1572356-d4561522-Reviews-Cafe_Restaurant_Le_Raisin-Le_Grand_Saconnex_Geneva.html", "address": "route de Colovrex 22"}, {"rating": "4.5", "yelpLink": "", "name": "Pomodoro", "cuisine": ["Italian", "Pizza"], "price": "$$ - $$$", "coordinates": [46.1966245, 6.1631814], "phone": "+41 22 736 97 93", "tripAdvisorLink": "https://www.tripadvisor.com/Restaurant_Review-g188057-d4299718-Reviews-Restaurant_Pizzeria_Il_Pomodoro-Geneva.html", "address": "route de Malagnou 50"}, {"rating": "3.5", "yelpLink": "", "name": "Le Marignac", "cuisine": ["European", "Russian", "Eastern European"], "price": "$$ - $$$", "coordinates": [46.179349, 6.123711999999999], "phone": "+41 22 794 33 33", "tripAdvisorLink": "https://www.tripadvisor.com/Restaurant_Review-g188057-d1044996-Reviews-Silk_Road_Le_Marignac-Geneva.html", "address": "Avenue Eugene Lance 32"}, {"rating": "4", "yelpLink": "", "name": "O Trois Ch\u00eanes", "cuisine": ["Fran\u00e7aise", "Bar \u00e0 bi\u00e8res", "Suisse"], "price": "\u20ac\u20ac - \u20ac\u20ac\u20ac", "coordinates": [46.204521, 6.2001936], "phone": "+41 22 348 21 20", "tripAdvisorLink": "https://www.tripadvisor.fr/Restaurant_Review-g188057-d3957015-Reviews-Restaurant_Grand_Chene-Geneva.html", "address": "Rue de Geneve 1"}, {"rating": "4", "yelpLink": "", "name": "Le Tilleul", "cuisine": ["Italian", "Mediterranean", "European"], "price": "$$ - $$$", "coordinates": [46.35641, 6.204944999999999], "phone": "+41 22 344 59 19", "tripAdvisorLink": "https://www.tripadvisor.com/Restaurant_Review-g188057-d1656516-Reviews-Les_Tilleuls-Geneva.html", "address": "avenue des Tilleuls 2"}, {"rating": "4", "yelpLink": "", "name": "Le Relais Champagnard", "cuisine": ["Suisse", "Europ\u00e9enne"], "price": "\u20ac\u20ac - \u20ac\u20ac\u20ac", "coordinates": [46.1637309, 6.019644599999999], "phone": "+41 22 756 25 56", "tripAdvisorLink": "https://fr.tripadvisor.ch/Restaurant_Review-g3373462-d4150660-Reviews-Le_Relais_Champagnard-Cartigny.html", "address": "Route de Chancy 404"}, {"rating": "4", "yelpLink": "", "name": "Aquarela Do Brasil", "cuisine": ["Brazilian", "Barbecue", "Steakhouse"], "price": "$$ - $$$", "coordinates": [46.2114607, 6.1339267], "phone": "+41 22 910 46 78", "tripAdvisorLink": "https://www.tripadvisor.com/Restaurant_Review-g188057-d8661460-Reviews-Aquarela_do_Brasil-Geneva.html", "address": "rue de la Servette 57"}, {"rating": "4", "yelpLink": "", "name": "Edelweiss (H\u00f4tel)", "cuisine": ["Suisse", "Europ\u00e9enne", "V\u00e9g\u00e9tariens bienvenus"], "price": "\u20ac\u20ac - \u20ac\u20ac\u20ac", "coordinates": [46.2114219, 6.1500441], "phone": "+41 22 544 51 60", "tripAdvisorLink": "https://fr.tripadvisor.ch/Restaurant_Review-g188057-d1044937-Reviews-Restaurant_Edelweiss-Geneva.html", "address": "place de la Navigation 2"}, {"rating": "3.5", "yelpLink": "", "name": "Caf\u00e9 de la Poste", "price": "$$ - $$$", "coordinates": [46.2089665, 6.2307016], "phone": "+41 22 754 01 01", "tripAdvisorLink": "https://www.tripadvisor.com/Restaurant_Review-g188057-d6618272-Reviews-Cafe_de_la_Poste-Geneva.html", "address": "Route de la Plaine 115, 1283 la Plaine"}, {"rating": "4", "yelpLink": "", "name": "Le Mont Sal\u00e8ve", "cuisine": ["Italian", "French", "Swiss"], "price": "$$ - $$$", "coordinates": [46.1655309, 6.115415899999999], "phone": "+41 22 784 17 12", "tripAdvisorLink": "https://www.tripadvisor.com/Restaurant_Review-g954047-d967786-Reviews-Le_Mont_Saleve-Veyrier.html", "address": "place de l' Eglise 31"}, {"rating": "3.5", "yelpLink": "", "name": "Marronniers 123", "cuisine": ["French", "Swiss", "Vegetarian Friendly"], "price": "$$ - $$$", "coordinates": [46.2011474, 6.158614399999999], "phone": "+41 22 752 59 57", "tripAdvisorLink": "https://www.tripadvisor.com/Restaurant_Review-g188057-d1011458-Reviews-Marronniers-Geneva.html", "address": "Route d' Hermance 123"}, {"yelpLink": "", "tripAdvisorLink": "", "name": "Restaurant du Club Nautique", "coordinates": [46.288778, 6.170306]}, {"rating": "3.5", "yelpLink": "", "name": "La Conca d'Oro", "cuisine": ["Italian", "Pizza", "Mediterranean"], "price": "$$ - $$$", "coordinates": [46.20073259999999, 6.1573096], "phone": "022+700+48+12", "tripAdvisorLink": "https://www.tripadvisor.com/Restaurant_Review-g188057-d4308072-Reviews-La_Conca_d_Oro-Geneva.html", "address": "rue de la Terrassiere 22"}, {"rating": "4", "yelpLink": "", "name": "La Bricole", "cuisine": ["Italienne"], "price": "Italienne", "coordinates": [46.1868685, 6.108734999999999], "phone": "+41 22 870 05 07", "tripAdvisorLink": "https://www.tripadvisor.fr/Restaurant_Review-g188057-d3653355-Reviews-La_Bricole-Geneva.html", "address": "route de Chancy 76"}, {"rating": "4", "yelpLink": "", "name": "C\u00f4t\u00e9 Cour C\u00f4t\u00e9 Jardin", "cuisine": ["French", "European", "Vegetarian Friendly"], "price": "$$ - $$$", "coordinates": [46.2014583, 6.1576099], "phone": "+41 22 736 88 86", "tripAdvisorLink": "https://www.tripadvisor.com/Restaurant_Review-g188057-d4406833-Reviews-Cote_Cour_Cote_Jardin-Geneva.html", "address": "Rue de la Chapelle, 8"}, {"rating": "4", "yelpLink": "https://en.yelp.ch/biz/chez-sami-gen%C3%A8ve", "name": "Chez Sami", "cuisine": ["Lebanese", "Mediterranean", "Middle Eastern"], "price": "$$ - $$$", "coordinates": [46.21125250000001, 6.1453913], "phone": "+41 22 901 03 33", "tripAdvisorLink": "https://www.tripadvisor.com/Restaurant_Review-g188057-d3848152-Reviews-Chez_Sami-Geneva.html", "address": "rue de Fribourg 11"}, {"rating": "4", "yelpLink": "", "name": "Kirin", "cuisine": ["Japanese", "Sushi", "Asian"], "price": "$$ - $$$", "coordinates": [46.2102248, 6.1454317], "phone": "+41 22 738 12 88", "tripAdvisorLink": "https://www.tripadvisor.com/Restaurant_Review-g188057-d943786-Reviews-Kirin-Geneva.html", "address": "rue de Neuchatel 4"}, {"rating": "3.5", "yelpLink": "", "name": "La Cit\u00e9 des Vents", "price": "\u20ac\u20ac - \u20ac\u20ac\u20ac", "coordinates": [46.2055479, 6.102073799999999], "phone": "+41 22 797 10 70", "tripAdvisorLink": "https://fr.tripadvisor.ch/Restaurant_Review-g4346525-d6719444-Reviews-La_Cite_des_Vents-Vernier_Geneva.html", "address": "rue de la Coupe Gordon-Bennett 3"}, {"rating": "4.5", "yelpLink": "", "name": "Caf\u00e9 Du Stade", "cuisine": ["Europ\u00e9enne", "Portugaise"], "price": "\u20ac\u20ac - \u20ac\u20ac\u20ac", "phone": "+41 22 301 18 11", "tripAdvisorLink": "https://fr.tripadvisor.ch/Restaurant_Review-g664427-d7736136-Reviews-Le_Cafe_du_Stade-Carouge.html", "address": "route de Veyrier 40"}, {"rating": "4.5", "yelpLink": "https://en.yelp.ch/biz/restaurant-le-thermom%C3%A8tre-gen%C3%A8ve-2", "name": "Le Thermom\u00e8tre", "cuisine": ["French", "Swiss", "European"], "price": "$$ - $$$", "phone": "+41 22 310 25 35", "tripAdvisorLink": "https://www.tripadvisor.com/Restaurant_Review-g188057-d1308582-Reviews-Le_Thermometre-Geneva.html", "address": "rue Neuve-du-Molard 22"}, {"rating": "4", "yelpLink": "", "name": "La Petite Auberge", "cuisine": ["Swiss", "European", "Portuguese"], "price": "$$ - $$$", "coordinates": [46.194596, 6.192114999999999], "phone": "+41 22 349 49 20", "tripAdvisorLink": "https://www.tripadvisor.com/Restaurant_Review-g2011469-d3237803-Reviews-La_Petite_Auberge-Chene_Bourg.html", "address": "avenue du Petit-Senn 2"}, {"rating": "4", "yelpLink": "", "name": "Kaopi", "cuisine": ["Fran\u00e7aise", "Caf\u00e9", "Moderne"], "price": "\u20ac\u20ac - \u20ac\u20ac\u20ac", "coordinates": [46.2035411, 6.138192699999999], "phone": "+41 22 311 47 47", "tripAdvisorLink": "https://fr.tripadvisor.ch/Restaurant_Review-g188057-d10162592-Reviews-L_Oranger-Geneva.html", "address": "Rue de Rive 6"}, {"rating": "4", "yelpLink": "", "name": "P\u00e9kin Palace", "cuisine": ["Chinoise", "Asiatique", "V\u00e9g\u00e9tariens bienvenus"], "price": "\u20ac\u20ac - \u20ac\u20ac\u20ac", "coordinates": [46.2105596, 6.144383800000001], "phone": "+41 22 900 28 88", "tripAdvisorLink": "https://fr.tripadvisor.ch/Restaurant_Review-g188057-d9802240-Reviews-Pekin_Palace-Geneva.html", "address": "rue des Alpes 22"}, {"rating": "4", "yelpLink": "", "name": "Au Cheval Blanc", "cuisine": ["Italian", "European", "Mediterranean"], "price": "$$$$", "coordinates": [46.19018519999999, 6.1402054], "phone": "+41 22 750 14 01", "tripAdvisorLink": "https://www.tripadvisor.com/Restaurant_Review-g188057-d783929-Reviews-Restaurant_du_Cheval_Blanc-Geneva.html", "address": "route de Meinier 1"}, {"rating": "4.5", "yelpLink": "", "name": "Les Lauriers", "cuisine": ["European"], "price": "$$ - $$$", "coordinates": [46.2126004, 6.1303689], "phone": "+41 22 339 71 86", "tripAdvisorLink": "https://www.tripadvisor.com/Restaurant_Review-g188057-d4558264-Reviews-Au_Cafe_Restaurant_des_Lauriers-Geneva.html", "address": "rue Henri-Veyrassat 5"}, {"rating": "3,5", "yelpLink": "", "name": "As De Pique", "cuisine": ["Fran\u00e7aise", "Italienne", "Pizza"], "price": "\u20ac\u20ac - \u20ac\u20ac\u20ac", "coordinates": [46.16680299999999, 6.185336], "phone": "+41 22 784 17 10", "tripAdvisorLink": "https://www.tripadvisor.fr/Restaurant_Review-g954047-d7191642-Reviews-As_de_Pique-Veyrier.html", "address": "Place de l'Eglise 6"}, {"rating": "4", "yelpLink": "https://en.yelp.ch/biz/chez-moi-cafe-and-catering-geneva-3", "name": "Chez Moi", "cuisine": ["Mediterranean", "French"], "price": "$$ - $$$", "coordinates": [41.8887058, -88.3099599], "phone": "+41 22 736 25 20", "tripAdvisorLink": "https://www.tripadvisor.com/Restaurant_Review-g188057-d6699506-Reviews-Chez_Moi-Geneva.html", "address": "rue de la Terrassiere 14"}, {"rating": "3.5", "yelpLink": "", "name": "Auberge Communale de Satigny", "cuisine": ["French", "Swiss", "European"], "price": "$$ - $$$", "coordinates": [46.210736, 6.0361505], "phone": "+41 22 753 12 87", "tripAdvisorLink": "https://www.tripadvisor.com/Restaurant_Review-g198841-d3242056-Reviews-Auberge_Communale_de_Satigny-Satigny.html", "address": "Chemin de Merdisel 4"}, {"rating": "3", "yelpLink": "", "name": "Le Bouchon", "cuisine": ["Swiss", "French", "Barbecue"], "price": "$$ - $$$", "coordinates": [46.181894, 6.133439], "phone": "+41 22 342 84 98", "tripAdvisorLink": "https://www.tripadvisor.com/Restaurant_Review-g188057-d817057-Reviews-Le_Bouchon-Geneva.html", "address": "rue Blavignac 12"}, {"rating": "4", "yelpLink": "", "name": "Racer Caf\u00e9", "cuisine": ["Fran\u00e7aise", "M\u00e9diterran\u00e9enne"], "price": "\u20ac\u20ac - \u20ac\u20ac\u20ac", "coordinates": [46.1912928, 6.1351618], "phone": "+41 22 301 44 44", "tripAdvisorLink": "https://www.tripadvisor.fr/Restaurant_Review-g188057-d11958906-Reviews-Racer_Cafe-Geneva.html", "address": "25, Route des Acacias"}, {"rating": "4", "yelpLink": "", "name": "Epic", "price": "$$ - $$$", "coordinates": [41.888244, -88.30769800000002], "phone": "+41 22 785 85 85", "tripAdvisorLink": "https://www.tripadvisor.com/Restaurant_Review-g1096098-d5770220-Reviews-EPIC-Plan_Les_Ouates_Geneva.html", "address": "chemin des Aulx 10"}, {"rating": "4", "yelpLink": "", "name": "Restaurant de la Place", "cuisine": ["French", "Swiss", "European"], "price": "$$ - $$$", "coordinates": [46.2097106, 6.140332099999999], "phone": "+41 22 733 00 24", "tripAdvisorLink": "https://www.tripadvisor.com/Restaurant_Review-g188057-d8626988-Reviews-Cafe_de_la_Place-Geneva.html", "address": "Place de Montbrillant 5"}, {"rating": "4.5", "yelpLink": "", "name": "S\u00e9oul", "cuisine": ["Barbecue", "Asian", "Korean"], "price": "$$ - $$$", "coordinates": [46.2112701, 6.147662599999999], "phone": "+41 22 732 46 05", "tripAdvisorLink": "https://www.tripadvisor.com/Restaurant_Review-g188057-d3655822-Reviews-Seoul-Geneva.html", "address": "rue de Zurich 17"}, {"rating": "4", "yelpLink": "https://en.yelp.ch/biz/le-diwane-gen%C3%A8ve", "name": "Le Diwane", "cuisine": ["Lebanese", "Middle Eastern", "Mediterranean"], "price": "$$ - $$$", "coordinates": [46.2113253, 6.1485555], "phone": "+41 22 732 73 91", "tripAdvisorLink": "https://www.tripadvisor.com/Restaurant_Review-g188057-d1044932-Reviews-Le_Diwane-Geneva.html", "address": "Rue de Zurich 6"}, {"rating": "4", "yelpLink": "", "name": "Queen Victoria", "cuisine": ["Wine Bar", "Italian", "Steakhouse"], "price": "$$ - $$$", "coordinates": [46.189857, 6.137096], "phone": "+41 22 343 02 60", "tripAdvisorLink": "https://www.tripadvisor.com/Restaurant_Review-g188057-d8291698-Reviews-Queen_Victoria-Geneva.html", "address": "rue du Grand-Bureau 16"}, {"rating": "3.5", "yelpLink": "", "name": "La Croix Verte", "cuisine": ["Italienne", "Pizza", "M\u00e9diterran\u00e9enne"], "price": "\u20ac\u20ac - \u20ac\u20ac\u20ac", "coordinates": [46.1524757, 6.2197559], "phone": "+41 22 361 15 39", "tripAdvisorLink": "https://fr.tripadvisor.ch/Restaurant_Review-g198830-d798548-Reviews-La_Croix_Verte-Nyon_Nyon_District_Canton_of_Vaud.html", "address": "rue Perdtemps 7"}, {"rating": "3.5", "yelpLink": "", "name": "Le Huit (La Barcarolle)", "cuisine": ["French", "European", "Central European"], "price": "$$$$", "phone": "+41 22 365 78 78", "tripAdvisorLink": "https://www.tripadvisor.com/Restaurant_Review-g1130705-d4993287-Reviews-Restaurant_Le_8-Prangins_Nyon_District_Canton_of_Vaud.html", "address": "Route de Promenthoux 8"}, {"rating": "4,5", "yelpLink": "", "name": "Le Virolet", "price": "\u20ac\u20ac - \u20ac\u20ac\u20ac", "phone": "+41 22 369 02 12", "tripAdvisorLink": "https://www.tripadvisor.fr/Restaurant_Review-g2718947-d10134283-Reviews-Le_Virolet-Begnins_Nyon_District_Canton_of_Vaud.html", "address": "rue de la Cezille 3"}, {"rating": "4", "yelpLink": "", "name": "Auberge de la Poste", "cuisine": ["Suisse", "Europ\u00e9enne", "V\u00e9g\u00e9tariens bienvenus"], "price": "\u20ac\u20ac - \u20ac\u20ac\u20ac", "coordinates": [46.34929899999999, 7.157666], "phone": "+41 24 492 31 24", "tripAdvisorLink": "https://fr.tripadvisor.ch/Restaurant_Review-g199031-d3524633-Reviews-Auberge_de_la_Poste_Restaurant-Les_Diablerets_Canton_of_Vaud.html", "address": "rue de la Gare 8"}, {"rating": "4", "yelpLink": "", "name": "Restaurant de l'Union", "cuisine": ["Fran\u00e7aise", "Europ\u00e9enne", "Barbecue/Grillades"], "price": "\u20ac\u20ac - \u20ac\u20ac\u20ac", "coordinates": [46.2121896, 6.142503], "phone": "+41 22 784 17 25", "tripAdvisorLink": "https://fr.tripadvisor.ch/Restaurant_Review-g954047-d7194135-Reviews-Cafe_Bersier_A_L_Union-Veyrier.html", "address": "route de Veyrier 269"}, {"yelpLink": "", "tripAdvisorLink": "", "name": "Le Milieu", "coordinates": [45.9047055, 6.6983315]}, {"rating": "3", "yelpLink": "https://en.yelp.ch/biz/molino-le-lacustre-gen%C3%A8ve", "name": "Le Lacustre", "cuisine": ["Italian", "Mediterranean", "European"], "price": "$$ - $$$", "coordinates": [46.204507, 6.148923], "phone": "+41 22 317 40 00", "tripAdvisorLink": "https://www.tripadvisor.com/Restaurant_Review-g188057-d1025141-Reviews-Restaurant_Le_Lacustre_Geneve-Geneva.html", "address": "quai du General-Guisan 5"}, {"yelpLink": "", "tripAdvisorLink": "", "name": "Les Cytises", "coordinates": [46.1641904, 6.174199499999999]}, {"rating": "3", "yelpLink": "", "name": "Copacabana", "cuisine": ["Brazilian", "South American"], "price": "$$ - $$$", "phone": "+596 596 66 08 92", "tripAdvisorLink": "https://www.tripadvisor.com/Restaurant_Review-g147329-d6475563-Reviews-Copacabana-Trois_Ilets_Arrondissement_of_Le_Marin_Martinique.html", "address": "7 Rue des Anthuriums"}, {"rating": "4.5", "yelpLink": "https://en.yelp.ch/biz/the-bagel-house-caf%C3%A9-gen%C3%A8ve", "name": "Bagel House Caf\u00e9", "cuisine": ["American", "Cafe", "Fast Food"], "price": "$$ - $$$", "coordinates": [46.2036629, 6.1463306], "phone": "+41 79 372 99 73", "tripAdvisorLink": "https://www.tripadvisor.com/Restaurant_Review-g188057-d8113258-Reviews-Bagel_House_Cafe-Geneva.html", "address": "rue du Marche 3"}, {"rating": "4", "yelpLink": "", "name": "Come Prima", "cuisine": ["Italian", "Pizza"], "price": "$$ - $$$", "coordinates": [46.197821, 6.136102999999999], "phone": "+41 22 328 52 98", "tripAdvisorLink": "https://www.tripadvisor.com/Restaurant_Review-g188057-d780138-Reviews-Come_Prima-Geneva.html", "address": "Rue des bains"}, {"rating": "4.5", "yelpLink": "https://www.yelp.com/biz/karne-gen%C3%A8ve", "name": "Karne", "price": "$$ - $$$", "coordinates": [46.2031537, 6.144408599999999], "phone": "+41 22 310 31 00", "tripAdvisorLink": "https://www.tripadvisor.com/Restaurant_Review-g188057-d8874801-Reviews-Karne-Geneva.html", "address": "rue Bemont 22"}, {"rating": "5", "yelpLink": "", "name": "Tianmin Li", "cuisine": ["Chinese", "Vegetarian Friendly"], "price": "$$ - $$$", "coordinates": [46.21264439999999, 6.1490426], "phone": "+41 22 738 53 11", "tripAdvisorLink": "https://www.tripadvisor.com/Restaurant_Review-g188057-d12866519-Reviews-Tian_Min_Li-Geneva.html", "address": "Rue de Bale 12"}, {"rating": "4.5", "yelpLink": "", "name": "Naya", "cuisine": ["Asian"], "price": "$", "coordinates": [46.2014199, 6.1321407], "phone": "+41 22 320 10 77", "tripAdvisorLink": "https://www.tripadvisor.com/Restaurant_Review-g188057-d8707414-Reviews-Naya-Geneva.html", "address": "boulevard de Saint-Georges 13"}, {"rating": "4", "yelpLink": "", "name": "Le T\u00e9s\u00e9o (H\u00f4tel Warwick)", "cuisine": ["French", "International", "European"], "price": "$$ - $$$", "coordinates": [46.2106647, 6.1443615], "phone": "+41 22 716 82 84", "tripAdvisorLink": "https://www.tripadvisor.com/Restaurant_Review-g188057-d2545907-Reviews-Teseo_Restaurant-Geneva.html", "address": "rue de Lausanne 14"}, {"rating": "4.5", "yelpLink": "", "name": "Mon R\u00eave", "cuisine": ["Italian", "Brazilian", "European"], "price": "$$ - $$$", "coordinates": [46.2127715, 6.1491433], "phone": "+41 79 966 22 33", "tripAdvisorLink": "https://www.tripadvisor.com/Restaurant_Review-g188057-d11962906-Reviews-Mon_Reve_Restaurant-Geneva.html", "address": "Rue de Bale 14"}, {"rating": "4.5", "yelpLink": "https://en.yelp.ch/search?cflt=chinese&find_loc=Gen%C3%A8ve", "name": "Cui Yuan", "coordinates": [46.2160267, 6.1465542], "phone": "738 20 96", "tripAdvisorLink": "https://www.tripadvisor.com/Restaurant_Review-g188057-d9558608-Reviews-Cui_Yuan-Geneva.html", "address": "rue Rothschild 54"}, {"rating": "4.5", "yelpLink": "", "name": "Restaurant Shamwari (Jiva Hill)", "cuisine": ["French", "European", "Vegetarian Friendly"], "price": "$$$$", "coordinates": [46.269443, 6.019512], "phone": "+33 4 50 28 48 47", "tripAdvisorLink": "https://www.tripadvisor.com/Restaurant_Review-g968374-d1738648-Reviews-The_Shamwari_Restaurant-Crozet_Ain_Auvergne_Rhone_Alpes.html", "address": "Route d_Haree"}, {"rating": "4", "yelpLink": "", "name": "Le 111", "cuisine": ["Moderne", "Fran\u00e7aise", "Europ\u00e9enne"], "price": "\u20ac\u20ac - \u20ac\u20ac\u20ac", "coordinates": [34.0677255, -118.2861314], "phone": "+33 4 50 85 06 25", "tripAdvisorLink": "https://www.tripadvisor.fr/Restaurant_Review-g1527993-d1528880-Reviews-Le_111-Douvaine_Haute_Savoie_Auvergne_Rhone_Alpes.html", "address": "111 Rue du centre"}, {"rating": "3.5", "yelpLink": "", "name": "Le Chat Rouge", "cuisine": ["Mexican"], "price": "$$ - $$$", "coordinates": [46.1972909, 6.0496794], "phone": "+41 22 344 98 98", "tripAdvisorLink": "https://www.tripadvisor.com/Restaurant_Review-g188057-d3649318-Reviews-Le_Chat_Rouge-Geneva.html", "address": "25 rue Voltaire"}, {"rating": "4.5", "yelpLink": "", "name": "Restaurant Les Fraisiers", "cuisine": ["Steakhouse", "V\u00e9g\u00e9tariens bienvenus"], "price": "\u20ac\u20ac - \u20ac\u20ac\u20ac", "coordinates": [46.174972, 6.1156739], "phone": "+41 22 794 64 74", "tripAdvisorLink": "https://fr.tripadvisor.ch/Restaurant_Review-g188057-d10451326-Reviews-Les_Fraisiers-Geneva.html", "address": "Avenue du Cur\u00e9 Baud 84"}, {"rating": "4.5", "yelpLink": "", "name": "Ferrari", "coordinates": [46.167675, 6.106198], "phone": "+41 22 735 05 22", "tripAdvisorLink": "https://www.tripadvisor.com/Restaurant_Review-g188057-d11666003-Reviews-Ferrari_Cafe_restaurant_pizzeria-Geneva.html", "address": "Route de Frontenex 43"}, {"rating": "4", "yelpLink": "", "name": "Le Jade", "cuisine": ["Chinese"], "price": "$$ - $$$", "coordinates": [46.1858177, 6.1337017], "phone": "+41 22 300 56 67", "tripAdvisorLink": "https://www.tripadvisor.com/Restaurant_Review-g664427-d6719568-Reviews-Le_Jade-Carouge.html", "address": "rue Alexandre-Gavard 16"}, {"rating": "4", "yelpLink": "", "name": "Saveurs et Couleurs", "cuisine": ["European", "Vegetarian Friendly"], "price": "$$ - $$$", "coordinates": [46.21092900000001, 6.1388779], "phone": "+41 22 734 63 52", "tripAdvisorLink": "https://www.tripadvisor.com/Restaurant_Review-g188057-d6719454-Reviews-Saveurs_et_Couleurs-Geneva.html", "address": "rue des Grottes 24"}, {"rating": "3.5", "yelpLink": "", "name": "El Mektoub", "cuisine": ["Moroccan", "Mediterranean", "Middle Eastern"], "price": "$$ - $$$", "coordinates": [46.2093992, 6.144558], "phone": "738-70-31", "tripAdvisorLink": "https://www.tripadvisor.com/Restaurant_Review-g188057-d1044940-Reviews-Restaurant_El_Mektoub-Geneva.html", "address": "5"}, {"rating": "4.5", "yelpLink": "https://www.yelp.com/biz/indian-curry-house-gen%C3%A8ve", "name": "Indian Curry House", "cuisine": ["Indian", "Asian", "Vegetarian Friendly"], "price": "$$ - $$$", "coordinates": [46.2123958, 6.1327189], "phone": "+41 22 525 44 22", "tripAdvisorLink": "https://www.tripadvisor.com/Restaurant_Review-g188057-d10835349-Reviews-Indian_Curry_House-Geneva.html", "address": "rue de la Servette 76"}, {"rating": "4", "yelpLink": "", "name": "Et Caetera", "cuisine": ["Italian", "European", "Mediterranean"], "price": "$$ - $$$", "coordinates": [46.2053234, 6.164299199999999], "phone": "+41 22 736 09 71", "tripAdvisorLink": "https://www.tripadvisor.com/Restaurant_Review-g188057-d6550164-Reviews-Et_Caetera_CafeRestaurant-Geneva.html", "address": "rue de Montchoisy 78"}, {"yelpLink": "https://en.yelp.ch/search?cflt=fondue&find_loc=Gen%C3%A8ve", "tripAdvisorLink": "", "name": "Babylone", "coordinates": [46.1872179, 6.1332719]}, {"rating": "3.5", "yelpLink": "https://en.yelp.ch/biz/l-atelier-cocktail-club-eaux-vives", "name": "L'Atelier Geneva", "cuisine": ["French", "Swiss", "European"], "price": "$$ - $$$", "coordinates": [46.1927371, 6.1297453], "phone": "+41 22 320 34 84", "tripAdvisorLink": "https://www.tripadvisor.com/Restaurant_Review-g188057-d2290967-Reviews-L_Atelier_Geneva-Geneva.html", "address": "rue Boissonnas 16"}, {"rating": "4", "yelpLink": "", "name": "Ming Wah", "coordinates": [46.2048874, 6.1301396], "phone": "+41 22 900 06 08", "tripAdvisorLink": "https://www.tripadvisor.com/Restaurant_Review-g188057-d6720236-Reviews-Ming_Wah_Restaurant-Geneva.html", "address": "rue de Saint-Jean 42"}, {"rating": "4", "yelpLink": "", "name": "Restaurant des Tennis", "phone": "+41 22 735 53 50", "tripAdvisorLink": "https://fr.tripadvisor.ch/Restaurant_Review-g188057-d4473456-Reviews-Restaurant_Tennis_Club_Eaux_Vives-Geneva.html", "address": "route de Frontenex 112"}, {"rating": "4", "yelpLink": "", "name": "Italian Pub & Restautant", "cuisine": ["French", "Bar", "Italian"], "price": "$$ - $$$", "coordinates": [33.7778249, -78.7913622], "phone": "+41 22 328 30 60", "tripAdvisorLink": "https://www.tripadvisor.com/Restaurant_Review-g188057-d4739776-Reviews-Italian_Pub_Restaurant-Geneva.html", "address": "boulevard Carl-Vogt 20"}, {"yelpLink": "https://en.yelp.ch/biz/restaurant-le-m%C3%A9kong-gen%C3%A8ve-3", "tripAdvisorLink": "", "name": "Caf\u00e9 Laner", "coordinates": [46.1864219, 6.1073407]}, {"rating": "4", "yelpLink": "", "name": "Leo's", "cuisine": ["Italian", "Pizza", "Mediterranean"], "price": "$$ - $$$", "coordinates": [46.1942343, 6.1409674], "phone": "+41 22 329 52 98", "tripAdvisorLink": "https://www.tripadvisor.com/Restaurant_Review-g188057-d7808375-Reviews-Leo_s_Pizzeria-Geneva.html", "address": "boulevard du Pont-d'Arve 51"}, {"rating": "4", "yelpLink": "", "name": "Broc'En Blanche", "coordinates": [46.18880859999999, 6.1432601], "phone": "+41 22 320 48 70", "tripAdvisorLink": "https://www.tripadvisor.com/Restaurant_Review-g188057-d10815945-Reviews-Broc_en_Blanche_Cafe-Geneva.html", "address": "Rue de Carouge 91"}, {"rating": "4", "yelpLink": "https://en.yelp.ch/biz/jiawei-gen%C3%A8ve", "name": "Jia Wei", "cuisine": ["Chinese", "Asian", "Soups"], "price": "$$ - $$$", "coordinates": [46.2147276, 6.1467958], "phone": "+41 22 738 95 53", "tripAdvisorLink": "https://www.tripadvisor.com/Restaurant_Review-g188057-d6368398-Reviews-Jiawei-Geneva.html", "address": "rue de Lausanne 56"}, {"rating": "3", "yelpLink": "", "name": "Le R\u00e9servoir", "cuisine": ["French", "European"], "price": "$$ - $$$", "coordinates": [46.2013001, 6.138129699999999], "phone": "+41 22 320 68 03", "tripAdvisorLink": "https://www.tripadvisor.com/Restaurant_Review-g188057-d4296143-Reviews-Le_Reservoir_Restaurant_Bar-Geneva.html", "address": "boulevard de Saint-Georges 62-64"}, {"rating": "3.5", "yelpLink": "", "name": "Mamma L\u00e9o La Barca", "cuisine": ["Seafood", "Italian", "Pizza"], "price": "$$ - $$$", "coordinates": [46.189339, 6.135236], "phone": "+41 22 342 27 57", "tripAdvisorLink": "https://www.tripadvisor.com/Restaurant_Review-g664427-d4086953-Reviews-La_Barca-Carouge.html", "address": "rue des Noirettes 14"}, {"rating": "4.5", "yelpLink": "", "name": "La Cantine", "cuisine": ["Fran\u00e7aise", "M\u00e9diterran\u00e9enne", "V\u00e9g\u00e9tariens bienvenus"], "price": "\u20ac\u20ac - \u20ac\u20ac\u20ac", "coordinates": [46.1689722, 6.1410518], "phone": "+41 22 328 16 70", "tripAdvisorLink": "https://fr.tripadvisor.ch/Restaurant_Review-g188057-d2524789-Reviews-Cantine_des_Commercants-Geneva.html", "address": "Boulevard Carl-Vogt 29"}, {"rating": "4", "yelpLink": "", "name": "La Piscine du Lignon", "cuisine": ["Fran\u00e7aise"], "price": "\u20ac\u20ac - \u20ac\u20ac\u20ac", "coordinates": [46.2043601, 6.1005178], "phone": "+41 22 796 10 47", "tripAdvisorLink": "https://fr.tripadvisor.ch/Restaurant_Review-g4346525-d6895749-Reviews-Restaurant_de_la_Piscine_du_Lignon-Vernier_Geneva.html", "address": "route du Bois-des-Freres 30"}, {"rating": "4", "yelpLink": "", "name": "Auberge du Grand Lancy", "cuisine": ["Italienne", "Fran\u00e7aise"], "price": "\u20ac\u20ac - \u20ac\u20ac\u20ac", "coordinates": [46.1836077, 6.1211376], "phone": "+41 22 794 16 98", "tripAdvisorLink": "https://fr.tripadvisor.ch/Restaurant_Review-g188057-d785323-Reviews-Auberge_de_Grand_Lancy-Geneva.html", "address": "route du Grand-Lancy 66"}, {"rating": "4", "yelpLink": "", "name": "D\u00e9lices Parc", "price": "\u20ac\u20ac - \u20ac\u20ac\u20ac", "coordinates": [46.206307, 6.1331767], "phone": "+41 22 344 07 26", "tripAdvisorLink": "https://www.tripadvisor.fr/Restaurant_Review-g188057-d7225887-Reviews-Delices_Parc-Geneva.html", "address": "Rue des D\u00e9lices 4"}, {"rating": "3.5", "yelpLink": "", "name": "La Terrasse", "cuisine": ["Italian", "Mediterranean"], "price": "$$ - $$$", "coordinates": [46.21168830000001, 6.1531739], "phone": "+41 22 796 20 40", "tripAdvisorLink": "https://www.tripadvisor.com/Restaurant_Review-g188057-d3506961-Reviews-La_Terrasse-Geneva.html", "address": "avenue Edmond Vaucher 1"}, {"rating": "3.5", "yelpLink": "", "name": "Dun Huang", "cuisine": ["Asian"], "price": "$$ - $$$", "coordinates": [46.189224, 6.1521881], "phone": "+41 22 346 34 21", "tripAdvisorLink": "https://www.tripadvisor.com/Restaurant_Review-g188057-d1044935-Reviews-Dun_Huang-Geneva.html", "address": "Ave de Champel"}, {"rating": "4,5", "yelpLink": "", "name": "Tam Tam Caf\u00e9", "coordinates": [46.1929104, 6.1447689], "phone": "+41 22 321 01 01", "tripAdvisorLink": "https://www.tripadvisor.fr/Restaurant_Review-g188057-d12252390-Reviews-Tam_Tam-Geneva.html", "address": "Rue du Pr\u00e9-J\u00e9r\u00f4me 8"}, {"rating": "4", "yelpLink": "", "name": "L\u2019ambiance", "cuisine": ["Italian"], "price": "$$ - $$$", "coordinates": [46.21154, 6.1262887], "phone": "+41 22 340 33 68", "tripAdvisorLink": "https://www.tripadvisor.com/Restaurant_Review-g188057-d4429919-Reviews-L_Ambiance-Geneva.html", "address": "rue Chatelain 5"}, {"rating": "4", "yelpLink": "https://en.yelp.ch/biz/nomades-gen%C3%A8ve-3", "name": "Nomades", "cuisine": ["Lebanese", "Moroccan", "Healthy"], "price": "$$ - $$$", "coordinates": [46.2105274, 6.1393761], "phone": "+41 22 734 09 88", "tripAdvisorLink": "https://www.tripadvisor.com/Restaurant_Review-g188057-d3727615-Reviews-Nomades-Geneva.html", "address": "rue des Grottes 18"}, {"rating": "3.5", "yelpLink": "https://en.yelp.ch/biz/royal-oriental-meyrin", "name": "Royal Oriental", "cuisine": ["Lebanese", "Indian", "Middle Eastern"], "price": "$$ - $$$", "coordinates": [46.2239294, 6.1089803], "phone": "+41 22 788 87 87", "tripAdvisorLink": "https://www.tripadvisor.com/Restaurant_Review-g188057-d4123713-Reviews-Restaurant_Royal_Oriental-Geneva.html", "address": "avenue Louis-Casai 60"}, {"rating": "3.5", "yelpLink": "", "name": "Bombay Palace", "cuisine": ["Indian", "Vegetarian Friendly", "Halal"], "price": "$$ - $$$", "coordinates": [46.2055205, 6.1609553], "phone": "+41 22 700 01 66", "tripAdvisorLink": "https://www.tripadvisor.com/Restaurant_Review-g188057-d2732909-Reviews-Bombay_Palace-Geneva.html", "address": "rue des Eaux-Vives 102"}, {"rating": "4", "yelpLink": "", "name": "Les Savoises", "coordinates": [46.1994123, 6.1383177], "phone": "+41 22 321 96 37", "tripAdvisorLink": "https://fr.tripadvisor.ch/Restaurant_Review-g188057-d4299714-Reviews-Cafe_Restaurant_Les_Savoises-Geneva.html", "address": "rue des Savoises 9 Bis"}, {"rating": "4.5", "yelpLink": "", "name": "Le Parfum D\u2019asie", "cuisine": ["Chinoise", "Asiatique"], "price": "\u20ac\u20ac - \u20ac\u20ac\u20ac", "coordinates": [46.1934499, 6.1984029], "phone": "+41 22 349 09 60", "tripAdvisorLink": "https://fr.tripadvisor.ch/Restaurant_Review-g188057-d8145787-Reviews-Le_parfum_d_Asie-Geneva.html", "address": "rue de Geneve 84"}, {"rating": "3", "yelpLink": "", "name": "La Colombi\u00e8re", "cuisine": ["Italian", "Pizza", "European"], "price": "$$ - $$$", "coordinates": [46.2338818, 6.1229594], "phone": "+41 22 761 49 00", "tripAdvisorLink": "https://www.tripadvisor.com/Restaurant_Review-g1572356-d4149593-Reviews-La_Colombiere-Le_Grand_Saconnex_Geneva.html", "address": "route de Ferney 171"}, {"rating": "4", "yelpLink": "", "name": "Caf\u00e9 des Amis", "price": "$$ - $$$", "coordinates": [46.223899, 6.225280499999999], "phone": "+41 22 750 13 39", "tripAdvisorLink": "https://www.tripadvisor.com/Restaurant_Review-g4346528-d4290753-Reviews-Cafe_des_Amis-Choulex.html", "address": "route de Choulex 132"}, {"rating": "4", "yelpLink": "https://en.yelp.ch/biz/zhong-tong-gen%C3%A8ve", "name": "Zhong Tong", "cuisine": ["Chinese", "Asian", "Vegetarian Friendly"], "price": "$$ - $$$", "coordinates": [46.2069075, 6.144695], "phone": "+41 22 732 68 68", "tripAdvisorLink": "https://www.tripadvisor.com/Restaurant_Review-g188057-d2470755-Reviews-Zhong_Tong-Geneva.html", "address": "rue du Cendrier 10"}, {"rating": "4", "yelpLink": "https://en.yelp.ch/search?cflt=indpak&find_loc=Gen%C3%A8ve", "name": "Sajna", "cuisine": ["Indian", "Asian", "Bangladeshi"], "price": "$$ - $$$", "coordinates": [46.2109812, 6.145997700000001], "phone": "+41 77 919 92 79", "tripAdvisorLink": "https://www.tripadvisor.com/Restaurant_Review-g188057-d1863804-Reviews-Sajna_Restaurant-Geneva.html", "address": "rue de Neuchatel 18"}, {"rating": "3.5", "yelpLink": "", "name": "Luna", "cuisine": ["Pizza", "Sushi", "Thai"], "price": "$$ - $$$", "coordinates": [46.1657068, 6.1110425], "phone": "+41 22 731 96 55", "tripAdvisorLink": "https://www.tripadvisor.com/Restaurant_Review-g188057-d3525386-Reviews-Luna-Geneva.html", "address": "rue Jean-Charles AMAT 13"}, {"rating": "3.5", "yelpLink": "", "name": "Le Frisco", "price": "$$ - $$$", "coordinates": [46.20204580000001, 6.1740039], "phone": "+41 22 786 65 64", "tripAdvisorLink": "https://www.tripadvisor.com/Restaurant_Review-g188057-d6720292-Reviews-Le_Frisco-Geneva.html", "address": "chemin Frisco 3"}, {"rating": "3.5", "yelpLink": "", "name": "Bombay", "cuisine": ["Indian", "Asian", "Vegetarian Friendly"], "price": "$$ - $$$", "coordinates": [46.2091716, 6.1449257], "phone": "+41 22 732 72 82", "tripAdvisorLink": "https://www.tripadvisor.com/Restaurant_Review-g188057-d1743993-Reviews-Bombay_Restaurant-Geneva.html", "address": "rue de Berne 11"}, {"rating": "4,5", "yelpLink": "", "name": "Au P'tit Vaudois", "price": "\u20ac\u20ac - \u20ac\u20ac\u20ac", "coordinates": [46.1964289, 6.142233699999999], "phone": "+41 22 329 09 98", "tripAdvisorLink": "https://www.tripadvisor.fr/Restaurant_Review-g188057-d6720262-Reviews-Au_P_tit_Vaudois-Geneva.html", "address": "avenue Henri-Dunant 11"}, {"rating": "3.5", "yelpLink": "https://www.yelp.com/biz/restaurant-chez-kuk-gen%C3%A8ve-2", "name": "Chez Kuk", "cuisine": ["Chinese", "Asian"], "price": "$$ - $$$", "coordinates": [46.1964699, 6.1461613], "phone": "+41 22 329 93 80", "tripAdvisorLink": "https://www.tripadvisor.com/Restaurant_Review-g188057-d2627639-Reviews-Chez_Kuk-Geneva.html", "address": "boulevard des Philosophes 18"}, {"rating": "4", "yelpLink": "", "name": "La Gazelle d'Or", "cuisine": ["African", "Ethiopian", "Vegetarian Friendly"], "price": "$$ - $$$", "coordinates": [46.2086945, 6.1330253], "phone": "+41 22 340 33 50", "tripAdvisorLink": "https://www.tripadvisor.com/Restaurant_Review-g188057-d785319-Reviews-Restaurant_Gazelle_d_Or_Village_Africain-Geneva.html", "address": "rue de Lyon 55"}, {"rating": "4", "yelpLink": "", "name": "Le Jardin des iles", "coordinates": [46.222658, 6.1233217], "phone": "+41 22 730 79 27", "tripAdvisorLink": "https://fr.tripadvisor.ch/Restaurant_Review-g188057-d4295446-Reviews-Jardin_des_Iles-Geneva.html", "address": "chemin Colladon 5"}, {"rating": "4.5", "yelpLink": "", "name": "La Pagerie", "cuisine": ["Fran\u00e7aise", "Europ\u00e9enne"], "price": "\u20ac\u20ac\u20ac\u20ac", "coordinates": [46.189954, 6.210774], "phone": "+33 4 50 38 34 00", "tripAdvisorLink": "https://fr.tripadvisor.ch/Restaurant_Review-g196702-d1807701-Reviews-La_Pagerie-Gaillard_Annemasse_Haute_Savoie_Auvergne_Rhone_Alpes.html", "address": "12 Rue de la Lib\u00e9ration"}, {"rating": "3", "yelpLink": "", "name": "La Chaumaz", "cuisine": ["European", "Steakhouse", "Swiss"], "price": "$$ - $$$", "coordinates": [46.2046875, 6.002377], "phone": "+41 22 754 11 46", "tripAdvisorLink": "https://www.tripadvisor.com/Restaurant_Review-g188057-d2302076-Reviews-La_Chaumaz-Geneva.html", "address": "route des Baillets 42"}, {"rating": "4", "yelpLink": "", "name": "Cz Pizza", "coordinates": [42.6056664, -88.4291249], "phone": "+41 22 794 06 97", "tripAdvisorLink": "https://www.tripadvisor.fr/Restaurant_Review-g1140494-d12825255-Reviews-CZ_Restaurant_Pizzeria-Lancy.html", "address": "94 avenue des Communes R\u00e9unies"}, {"rating": "4.5", "yelpLink": "", "name": "La Table de Laure", "cuisine": ["French", "Vegetarian Friendly"], "price": "$$ - $$$", "coordinates": [46.3286482, 6.1178439], "phone": "+33 6 87 12 80 85", "tripAdvisorLink": "https://www.tripadvisor.com/Restaurant_Review-g4428243-d3843161-Reviews-La_Table_de_Laure-Grilly_Ain_Auvergne_Rhone_Alpes.html", "address": "42 Chemin en Munet"}, {"rating": "4", "yelpLink": "", "name": "Prizreni Grill", "cuisine": ["Fran\u00e7aise", "Steakhouse", "Europ\u00e9enne"], "price": "\u20ac\u20ac\u20ac\u20ac", "coordinates": [46.2218629, 6.0863839], "phone": "+41 22 908 92 20", "tripAdvisorLink": "https://fr.tripadvisor.ch/Restaurant_Review-g188057-d1370536-Reviews-Le_Grill-Geneva.html", "address": "quai du Mont-Blanc 19"}, {"yelpLink": "", "tripAdvisorLink": "", "name": "Le Derby", "coordinates": [46.2147268, 6.1338335]}]